,City,Cloudiness,Country,Date,Humidity,Lat,Lng,Max Temp,Wind Speed
0,Staszów,47,PL,1586612908,19,50.56,21.17,16.67,1.79
1,Mahébourg,40,MU,1586612750,69,-20.41,57.7,27.0,6.2
2,Port Elizabeth,100,ZA,1586612762,60,-33.92,25.57,21.0,3.1
3,Albany,40,US,1586612571,52,42.6,-73.97,5.56,8.7
4,Litovko,63,RU,1586612912,67,49.24,135.17,2.25,1.48
5,Vila Franca do Campo,20,PT,1586612744,63,37.72,-25.43,17.0,8.2
6,Qaanaaq,70,GL,1586612640,78,77.48,-69.36,-11.56,2.71
7,Sistranda,100,NO,1586612756,65,63.73,8.83,7.22,6.2
8,Mound,90,US,1586612916,69,44.94,-93.67,6.67,1.5
9,Prieska,40,ZA,1586612917,21,-29.66,22.75,29.96,10.4
10,Punta Arenas,75,CL,1586612448,75,-53.15,-70.92,7.0,7.2
11,Bethel,1,US,1586612746,41,41.37,-73.41,7.22,5.1
12,Mataura,100,NZ,1586612741,72,-46.19,168.86,12.22,0.45
13,Moose Factory,90,CA,1586612921,92,51.26,-80.61,-4.0,3.6
14,Kaitangata,73,NZ,1586612742,96,-46.28,169.85,10.0,1.34
15,Bredasdorp,100,ZA,1586612749,41,-34.53,20.04,25.0,2.1
16,Ushuaia,40,AR,1586612743,56,-54.8,-68.3,7.0,2.6
17,Rikitea,97,PF,1586612741,74,-23.12,-134.97,24.79,2.13
18,Aklavik,40,CA,1586612914,84,68.22,-135.01,-18.0,1.0
19,Maceió,75,BR,1586612755,62,-9.67,-35.74,31.0,4.1
20,Roebourne,0,AU,1586612929,51,-20.78,117.13,28.54,3.9
21,Cape Town,40,ZA,1586612720,77,-33.93,18.42,22.22,9.3
22,Khatanga,80,RU,1586612580,94,71.97,102.5,-13.85,5.62
23,Wisconsin Rapids,1,US,1586612932,59,44.38,-89.82,7.22,3.1
24,Ponta do Sol,75,PT,1586612736,68,32.67,-17.1,18.0,4.1
25,Nanning,20,CN,1586612934,69,22.82,108.32,23.0,7.0
26,Bluff,100,NZ,1586612748,72,-46.6,168.33,12.22,0.45
27,Port Alfred,100,ZA,1586612742,85,-33.59,26.89,19.44,1.34
28,Charlestown,0,AU,1586612938,45,-32.95,151.67,17.22,6.2
29,Busselton,100,AU,1586612741,45,-33.65,115.33,21.67,0.84
30,Baykit,79,RU,1586612940,94,61.67,96.37,-1.73,1.8
31,Vaini,20,TO,1586612632,93,-21.2,-175.2,19.0,1.0
32,Kapaa,1,US,1586612562,77,22.08,-159.32,24.0,3.1
33,Nouadhibou,0,MR,1586612822,27,20.93,-17.03,31.0,9.3
34,Sitka,1,US,1586612756,74,57.05,-135.33,-1.0,2.1
35,Bambous Virieux,40,MU,1586612741,69,-20.34,57.76,27.0,6.2
36,Jamestown,90,US,1586612505,67,42.1,-79.24,3.0,3.1
37,Huarmey,84,PE,1586612658,68,-10.07,-78.15,25.39,3.31
38,Torbay,75,CA,1586612743,75,47.67,-52.73,6.67,4.6
39,Manuk Mangkaw,11,PH,1586612949,65,4.8,119.85,28.69,0.84
40,Barrow,1,US,1586612748,75,71.29,-156.79,-29.0,4.6
41,Cayenne,90,GF,1586612769,66,4.93,-52.33,30.0,5.1
42,Atuona,97,PF,1586612741,72,-9.8,-139.03,27.84,3.91
43,Upernavik,100,GL,1586612741,88,72.79,-56.15,-6.87,3.25
44,Ulaangom,40,MN,1586612955,76,49.98,92.07,-3.2,1.16
45,Beringovskiy,93,RU,1586612781,93,63.05,179.32,-14.18,5.12
46,Grand Gaube,40,MU,1586612957,69,-20.01,57.66,27.0,6.2
47,Poum,20,NC,1586612751,71,-20.23,164.02,25.43,5.05
48,Mar del Plata,40,AR,1586612747,100,-38.0,-57.56,20.56,4.1
49,São Filipe,0,CV,1586612743,71,14.9,-24.5,24.68,8.2
50,Puerto Ayora,40,EC,1586612748,83,-0.74,-90.35,27.78,1.5
51,Fortuna,90,US,1586612757,100,40.6,-124.16,11.11,4.23
52,Águas Formosas,88,BR,1586612963,73,-17.08,-40.94,26.58,1.44
53,Cabedelo,40,BR,1586612932,62,-6.98,-34.83,31.0,5.1
54,Hithadhoo,92,MV,1586612608,67,-0.6,73.08,29.53,3.79
55,Mount Gambier,90,AU,1586612764,66,-37.83,140.77,11.0,2.6
56,Tuktoyaktuk,40,CA,1586612745,83,69.45,-133.04,-23.0,4.1
57,Thompson,75,CA,1586612758,72,55.74,-97.86,-9.0,3.1
58,Camaná,89,PE,1586612970,72,-16.62,-72.71,23.59,3.57
59,Dikson,99,RU,1586612741,93,73.51,80.55,-12.18,3.45
60,Yellowknife,20,CA,1586612743,84,62.46,-114.35,-17.22,3.6
61,George Town,20,MY,1586612738,74,5.41,100.34,31.0,2.6
62,Opuwo,56,NA,1586612767,29,-18.06,13.84,29.32,4.6
63,Saint-Philippe,20,RE,1586612745,69,-21.36,55.77,27.0,11.3
64,Coari,81,BR,1586612976,61,-4.08,-63.14,31.88,0.43
65,Castro,75,BR,1586612742,45,-24.79,-50.01,20.63,1.19
66,Santo Antônio do Tauá,75,BR,1586612978,79,-1.15,-48.13,29.0,3.6
67,Necoclí,75,CO,1586612980,94,8.42,-76.79,25.0,1.5
68,Hobart,75,AU,1586612743,71,-42.88,147.33,11.0,2.6
69,Kumul,100,CN,1586612982,16,42.8,93.45,17.67,3.17
70,Rock Sound,43,BS,1586612983,86,24.9,-76.2,24.25,6.31
71,Meulaboh,61,ID,1586612984,78,4.14,96.13,27.58,0.99
72,Lebu,0,CL,1586612747,59,-37.62,-73.65,14.9,5.83
73,Eirunepé,94,BR,1586612986,83,-6.66,-69.87,26.99,0.88
74,Hilo,20,US,1586612649,82,19.73,-155.09,20.0,1.5
75,Bang Saphan,33,TH,1586612988,82,11.21,99.51,26.46,1.1
76,Cap Malheureux,40,MU,1586612931,69,-19.98,57.61,27.0,6.2
77,Lincoln,1,US,1586612990,75,40.8,-96.67,11.0,2.66
78,Tasiilaq,40,GL,1586612564,50,65.61,-37.64,-1.0,13.4
79,Praia da Vitória,20,PT,1586612775,77,38.73,-27.07,17.0,4.7
80,Maïné Soroa,99,NE,1586612994,9,13.21,12.02,35.96,7.98
81,Ballina,1,AU,1586612751,88,-28.87,153.57,22.0,0.5
82,Pevek,100,RU,1586612750,94,69.7,170.31,-14.25,5.58
83,Vytegra,70,RU,1586612997,79,61.01,36.45,1.02,2.45
84,Constitución,100,CL,1586612757,70,-35.33,-72.42,16.02,3.84
85,Bull Savanna,61,JM,1586612999,52,17.89,-77.59,28.94,2.74
86,Coyhaique,40,CL,1586612756,70,-45.58,-72.07,7.0,1.5
87,Samoded,100,RU,1586612781,88,63.61,40.51,0.11,1.75
88,Kavaratti,2,IN,1586612772,67,10.57,72.64,29.65,1.49
89,Airai,25,TL,1586612743,74,-8.93,125.41,15.95,0.43
90,Nueva Helvecia,75,UY,1586612762,77,-34.3,-57.23,18.89,3.6
91,Alice Springs,40,AU,1586612760,25,-23.7,133.88,18.0,1.0
92,Zheleznodorozhnyy,100,RU,1586613006,44,55.75,38.0,6.0,8.0
93,Longyearbyen,20,SJ,1586612766,59,78.22,15.64,-16.0,2.04
94,Chizhou,99,CN,1586613009,87,30.66,117.48,7.96,0.7
95,Itarema,100,BR,1586612752,75,-2.92,-39.92,29.23,3.34
96,Chokurdakh,100,RU,1586612639,98,70.63,147.92,-2.11,7.23
97,Kerman,75,IR,1586613012,19,30.28,57.08,24.0,6.2
98,Litovel,91,CZ,1586613013,27,49.7,17.08,17.22,4.1
99,Teknāf,31,BD,1586613014,84,20.86,92.31,25.53,1.31
100,Tiksi,31,RU,1586612576,93,71.69,128.87,-5.62,7.64
101,New Norfolk,75,AU,1586612740,71,-42.78,147.06,11.0,2.6
102,Arraial do Cabo,75,BR,1586612742,78,-22.97,-42.03,25.0,3.1
103,Svetlaya,0,RU,1586613018,92,46.54,138.33,-1.55,3.04
104,Touros,20,BR,1586612766,83,-5.2,-35.46,29.0,3.1
105,Pizarro,97,CO,1586613021,89,4.95,-77.37,25.89,1.22
106,Inírida,99,CO,1586612794,63,3.87,-67.92,29.83,1.39
107,Clyde River,75,CA,1586612761,78,70.47,-68.59,-13.0,7.7
108,Obihiro,80,JP,1586613024,94,42.92,143.2,-2.05,0.3
109,Olinda,40,BR,1586612934,66,-8.01,-34.86,31.0,3.1
110,Sioux Lookout,90,CA,1586612777,83,50.1,-91.92,0.0,5.1
111,Lata,75,PT,1586613027,72,40.16,-8.33,18.33,3.6
112,Narsaq,75,GL,1586612759,36,60.92,-46.05,8.0,3.1
113,Saint Paul Harbor,90,US,1586612747,80,57.79,-152.41,4.0,6.7
114,Butaritari,89,KI,1586612737,76,3.07,172.79,28.79,5.64
115,San Patricio,20,MX,1586612746,72,19.22,-104.7,20.0,0.63
116,Fairbanks,20,US,1586612739,84,64.84,-147.72,-6.11,2.1
117,Saldanha,70,ZA,1586612629,53,-33.01,17.94,25.0,4.1
118,Nikolskoye,40,RU,1586612750,65,59.7,30.79,6.11,9.0
119,Yārāda,75,IN,1586612772,79,17.65,83.27,29.0,3.6
120,Kruisfontein,100,ZA,1586612746,45,-34.0,24.73,21.31,2.37
121,Jūybār,75,IR,1586613038,67,36.64,52.91,14.0,1.0
122,Kautokeino,94,NO,1586613039,92,69.01,23.04,-2.97,4.34
123,Sørland,100,NO,1586612757,79,67.67,12.69,1.75,4.49
124,Adrar,0,MR,1586612744,9,20.5,-10.07,37.03,4.54
125,Urengoy,100,RU,1586613042,98,65.97,78.37,2.49,8.76
126,Saint George,1,US,1586612630,81,37.1,-113.58,7.22,1.5
127,Katobu,100,ID,1586613044,90,-4.94,122.53,24.42,1.37
128,Jever,92,DE,1586613045,27,53.58,7.9,18.89,2.6
129,Ryōtsu-minato,84,JP,1586613046,86,38.08,138.43,4.0,1.0
130,Atambua,13,ID,1586612768,80,-9.11,124.89,23.15,1.36
131,Illela,64,NG,1586613049,7,13.73,5.3,40.9,6.52
132,Ilulissat,75,GL,1586612768,50,69.22,-51.1,1.0,3.6
133,Hermanus,100,ZA,1586612741,73,-34.42,19.23,22.78,0.89
134,Bonthe,68,SL,1586612769,65,7.53,-12.51,30.89,4.9
135,Paita,96,PE,1586613053,100,-5.09,-81.11,17.0,5.1
136,Sur,0,OM,1586612829,53,22.57,59.53,28.98,5.36
137,Magistral'nyy,100,RU,1586613055,81,56.17,107.45,1.57,2.57
138,Codrington,49,AU,1586613056,77,-38.27,141.97,10.79,5.85
139,Marsabit,20,KE,1586613057,33,2.33,37.99,26.76,7.62
140,Cidreira,18,BR,1586612749,57,-30.18,-50.21,21.86,2.7
141,Zonguldak,11,TR,1586613060,54,41.25,31.83,10.39,2.6
142,Chernyshevskiy,33,RU,1586613061,95,63.01,112.47,-4.07,3.48
143,Basco,79,PH,1586612742,73,20.45,121.97,24.85,2.37
144,Puyang,100,CN,1586613063,84,29.46,119.89,9.61,1.4
145,Port Lincoln,52,AU,1586612777,65,-34.73,135.87,13.54,3.55
146,Arlit,93,NE,1586612758,7,18.74,7.39,38.63,2.62
147,Virginia Beach,1,US,1586612504,37,36.85,-75.98,11.67,6.2
148,Ullapool,89,GB,1586613067,70,57.9,-5.16,14.44,5.81
149,Cockburn Town,0,TC,1586612742,73,21.46,-71.14,25.91,1.91
150,Bubaque,0,GW,1586612760,75,11.28,-15.83,26.14,4.86
151,Nome,20,US,1586612545,92,64.5,-165.41,-6.0,4.6
152,Tvøroyri,99,FO,1586613072,93,61.56,-6.81,8.0,8.2
153,Katsuura,75,JP,1586612755,58,35.13,140.3,13.0,6.2
154,Port Macquarie,0,AU,1586612765,32,-31.43,152.92,20.0,6.7
155,Severo-Kuril'sk,67,RU,1586612744,94,50.68,156.12,-1.98,4.48
156,Bousso,100,TD,1586613076,16,10.48,16.71,35.06,1.8
157,Bud,90,US,1586613077,52,39.45,-86.18,9.44,2.6
158,Gambēla,48,ET,1586613078,37,8.25,34.58,33.04,0.61
159,Rørvik,100,NO,1586613079,75,64.86,11.24,3.62,4.77
160,Provideniya,100,RU,1586612747,96,64.38,-173.3,-3.97,1.77
161,Lavrentiya,99,RU,1586612779,98,65.58,-171.0,-2.44,3.7
162,Viedma,100,AR,1586613067,50,-40.81,-63.0,20.49,4.33
163,Leningradskiy,100,RU,1586612743,82,69.38,178.42,-13.94,2.41
164,Talnakh,75,RU,1586612772,92,69.49,88.4,-5.0,12.0
165,Hrymayliv,51,UA,1586613086,38,49.33,26.01,11.6,5.64
166,Soyo,28,AO,1586612803,72,-6.13,12.37,29.43,3.0
167,Samarai,73,PG,1586612948,72,-10.62,150.67,25.97,1.9
168,Port Augusta,90,AU,1586613089,63,-32.5,137.77,16.0,4.1
169,Talcahuano,75,CL,1586612985,82,-36.72,-73.12,15.0,2.1
170,Marawi,0,PH,1586613091,67,8.0,124.29,19.69,1.07
171,Novo Aripuanã,100,BR,1586613092,82,-5.12,-60.38,29.27,0.64
172,Jining,0,CN,1586612774,54,35.41,116.58,7.74,4.12
173,Nanortalik,90,GL,1586612744,68,60.14,-45.24,4.16,7.26
174,Pacific Grove,90,US,1586612741,76,36.62,-121.92,13.0,1.93
175,DeKalb County,1,US,1586613096,61,33.75,-84.23,12.22,2.97
176,Villamontes,0,BO,1586613097,29,-21.25,-63.5,27.5,2.25
177,Norfolk,1,US,1586612809,42,42.17,-71.25,7.78,7.7
178,Sawtell,0,AU,1586613100,87,-30.38,153.1,19.0,1.5
179,Broome,1,US,1586612768,66,42.25,-75.83,3.89,5.1
180,Bucerías,40,MX,1586613102,88,20.75,-105.33,21.67,2.1
181,Nosy Varika,10,MG,1586613103,83,-20.58,48.53,24.45,1.34
182,Robertsport,76,LR,1586612757,64,6.75,-11.37,29.32,3.03
183,Katangli,25,RU,1586613105,94,51.71,143.23,-3.35,5.11
184,Sompeta,0,IN,1586612832,71,18.93,84.6,28.09,4.13
185,Uvalde,90,US,1586613108,100,29.37,-99.77,19.44,4.6
186,Praia,20,CV,1586612752,40,14.92,-23.51,30.0,8.7
187,Avarua,87,CK,1586612739,100,-21.21,-159.78,26.0,0.5
188,Puerto Lempira,80,HN,1586613111,66,15.27,-83.77,29.1,3.77
189,Mogadishu,40,SO,1586613112,62,2.04,45.34,31.0,6.2
190,Oktyabr'skiy,100,RU,1586612768,58,54.48,53.47,7.64,3.51
191,Caravelas,32,BR,1586613114,80,-17.71,-39.25,27.36,4.72
192,Krasnosel'kup,100,RU,1586612770,96,65.7,82.47,1.88,9.99
193,Yichun,16,CN,1586613117,64,47.7,128.9,2.34,0.87
194,East London,100,ZA,1586612645,73,-33.02,27.91,23.0,2.1
195,Norman Wells,75,CA,1586612751,92,65.28,-126.83,-6.0,1.5
196,Carnarvon,40,AU,1586612745,83,-24.87,113.63,26.0,5.1
197,Kiryat Gat,40,IL,1586612776,63,31.61,34.76,20.0,6.2
198,Madang,100,PG,1586613122,80,-5.22,145.8,26.21,0.83
199,Riyadh,75,SA,1586613039,13,24.69,46.72,34.0,3.6
200,Vanavara,42,RU,1586612928,93,60.34,102.28,-1.57,2.08
201,Zhezkazgan,44,KZ,1586613125,43,47.8,67.71,9.16,4.25
202,Pictou,92,CA,1586613126,83,45.68,-62.72,4.44,8.05
203,Dingle,3,PH,1586612742,69,11.0,122.67,26.12,3.32
204,Saint-Pierre,20,RE,1586613128,69,-21.34,55.48,27.0,11.3
205,Faanui,100,PF,1586612744,75,-16.48,-151.75,28.05,4.69
206,Mirny,55,RU,1586613130,74,62.54,113.96,1.0,7.0
207,Ribeira Grande,20,PT,1586612773,77,38.52,-28.7,18.0,2.6
208,Port Blair,68,IN,1586612750,71,11.67,92.75,28.65,3.28
209,Springbok,0,ZA,1586613134,18,-29.66,17.89,25.24,6.04
210,La Llave,5,MX,1586613135,50,20.47,-100.0,13.0,2.1
211,Saskylakh,90,RU,1586612712,94,71.92,114.08,-10.26,6.75
212,Boyolangu,69,ID,1586613097,77,-8.12,111.89,25.51,0.6
213,Sinegor'ye,100,RU,1586613138,90,62.08,150.48,-5.49,3.07
214,Lábrea,89,BR,1586613139,77,-7.26,-64.8,27.5,0.93
215,Ţahţā,0,EG,1586613140,21,26.77,31.5,29.0,6.2
216,Karratha,0,AU,1586612766,58,-20.74,116.85,28.37,4.49
217,Vicuña,85,CL,1586613142,67,-30.03,-70.71,16.0,2.1
218,Ishigaki,75,JP,1586613143,85,24.34,124.16,22.07,8.4
219,Clarksburg,75,US,1586612914,52,39.28,-80.34,7.22,3.1
220,Abbeville,12,FR,1586612659,45,50.1,1.83,23.89,4.6
221,Grindavik,75,IS,1586613147,86,63.84,-22.43,6.0,5.7
222,Manggar,51,ID,1586613148,80,-2.88,108.27,27.78,2.45
223,Magdagachi,3,RU,1586613149,80,53.45,125.8,2.11,2.05
224,Kang,87,BW,1586613150,29,-23.68,22.79,26.09,1.64
225,Evensk,98,RU,1586613151,89,61.95,159.23,-15.32,2.08
226,Haverfordwest,4,GB,1586613152,67,51.8,-4.97,21.11,3.1
227,Chicama,93,PE,1586613153,93,-7.84,-79.15,19.0,4.1
228,Bodden Town,20,KY,1586613154,83,19.28,-81.25,28.33,4.44
229,Pitimbu,40,BR,1586613155,62,-7.47,-34.81,31.0,5.1
230,Dejen,64,ET,1586613156,17,10.17,38.13,24.73,0.81
231,Concordia,0,AR,1586613157,77,-31.39,-58.02,18.0,3.1
232,Chapleau,20,CA,1586613158,74,47.84,-83.4,-2.0,3.6
233,Pasni,17,PK,1586613159,67,25.26,63.47,26.8,4.43
234,Guerrero Negro,96,MX,1586612747,69,27.98,-114.06,15.64,2.54
235,Dunedin,78,NZ,1586612760,96,-45.87,170.5,10.0,0.89
236,Okato,70,NZ,1586613163,89,-39.2,173.88,11.67,1.79
237,Nemuro,46,JP,1586612746,91,43.32,145.57,-0.74,4.58
238,Guamúchil,80,MX,1586612916,31,25.47,-108.1,21.4,0.89
239,Havelock,1,US,1586612897,43,34.88,-76.9,12.78,3.6
240,Pilar,75,BR,1586613167,62,-9.6,-35.96,31.0,4.1
241,Alekseyevka,85,RU,1586613168,51,50.63,38.69,8.0,5.65
242,Uithoorn,76,NL,1586613169,32,52.24,4.83,21.67,1.5
243,Vao,21,NC,1586612774,78,-22.67,167.48,24.04,7.0
244,Carutapera,74,BR,1586612773,74,-1.2,-46.02,29.2,3.81
245,Tabuny,10,RU,1586613172,56,52.78,78.79,7.09,3.63
246,Suclayin,58,PH,1586613173,77,15.76,121.55,25.4,0.23
247,Arrondissement de Saint-Malo,0,FR,1586613174,31,48.5,-1.83,26.0,4.6
248,Namwala,91,ZM,1586613175,47,-15.75,26.44,24.89,2.1
249,Ashington,33,GB,1586613176,33,50.93,-0.39,25.56,3.1
250,Bonavista,94,CA,1586612952,86,48.65,-53.11,2.22,1.34
251,Novikovo,100,RU,1586613179,55,51.15,37.89,7.0,4.37
252,El Jícaro,65,GT,1586613180,32,14.92,-89.9,35.22,1.03
253,Vestmannaeyjar,90,IS,1586613181,93,63.44,-20.27,7.0,3.1
254,Leer,46,SS,1586613182,26,8.3,30.14,36.08,2.66
255,Ajdabiya,100,LY,1586613183,47,30.76,20.23,18.82,7.2
256,Sisimiut,100,GL,1586613184,84,66.94,-53.67,1.36,0.96
257,Batticaloa,13,LK,1586613185,76,7.71,81.69,27.93,3.71
258,Taku,1,CN,1586613186,24,39.02,117.65,15.0,2.0
259,Barra do Garças,20,BR,1586612946,58,-15.89,-52.26,31.0,1.29
260,Elko,1,US,1586613188,64,41.0,-115.5,6.67,1.5
261,Kīhei,1,US,1586613189,78,20.79,-156.47,22.0,5.7
262,Onega,2,RU,1586613190,88,63.91,38.14,-0.86,3.53
263,Raja,7,SS,1586613191,17,8.46,25.68,35.73,3.19
264,Dalby,53,AU,1586613193,58,-27.18,151.27,17.78,3.6
265,City of San Pedro,40,PH,1586613172,70,14.35,121.02,29.0,2.6
266,Mildura,0,AU,1586613139,50,-34.2,142.15,13.0,4.1
267,Toribío,90,CO,1586613196,100,2.95,-76.27,21.0,0.59
268,Iskitim,49,RU,1586613197,45,54.64,83.3,6.0,2.0
269,Kavieng,97,PG,1586612751,76,-2.57,150.8,28.26,2.34
270,Río Gallegos,75,AR,1586612761,60,-51.62,-69.22,5.0,5.7
271,La Romana,40,DO,1586613119,94,18.43,-68.97,28.0,2.92
272,Husavik,90,IS,1586613201,93,66.04,-17.34,2.0,3.1
273,Buin,75,CL,1586613202,76,-33.73,-70.75,14.0,1.84
274,Sinnamary,93,GF,1586613203,69,5.38,-52.95,28.15,5.87
275,Port Hardy,90,CA,1586612770,86,50.7,-127.42,4.0,1.54
276,Marsh Harbour,94,BS,1586613205,72,26.54,-77.06,22.59,5.96
277,Gainesville,1,US,1586613206,50,29.65,-82.32,20.0,1.5
278,Dicabisagan,42,PH,1586613207,79,17.08,122.42,25.06,1.28
279,Gogrial,89,SS,1586613209,32,8.53,28.1,33.83,1.62
280,Pangnirtung,100,CA,1586612763,84,66.15,-65.71,-5.12,0.16
281,Pacifica,90,US,1586613211,93,37.61,-122.49,12.22,2.1
282,Los Llanos de Aridane,75,ES,1586612743,73,28.66,-17.92,21.0,4.1
283,Shakhtinsk,94,KZ,1586613213,46,49.71,72.59,10.0,5.0
284,Alofi,100,NU,1586612738,100,-19.06,-169.92,20.0,1.0
285,San Cristobal,100,VE,1586613158,44,7.77,-72.22,26.14,1.34
286,Yar-Sale,100,RU,1586612743,97,66.83,70.83,-0.19,6.64
287,Awjilah,74,LY,1586613217,20,29.11,21.29,23.3,4.31
288,Klaksvík,100,FO,1586612777,93,62.23,-6.59,8.0,8.2
289,Kieta,92,PG,1586612646,79,-6.22,155.63,26.8,1.26
290,Calvinia,45,ZA,1586613220,16,-31.47,19.78,25.51,6.73
291,Pangkalanbuun,100,ID,1586612975,90,-2.68,111.62,25.12,1.19
292,Sines Municipality,1,PT,1586613222,82,37.96,-8.87,16.67,4.02
293,Ipixuna,75,BR,1586613223,79,-1.76,-48.8,29.0,3.6
294,Saint Anthony,20,US,1586613224,74,45.02,-93.22,6.67,1.18
295,North Bend,90,US,1586613226,100,43.41,-124.22,8.33,2.6
296,Luwuk,4,ID,1586613227,67,-0.95,122.79,27.36,3.56
297,Muros,75,ES,1586612767,82,42.78,-9.06,17.22,2.1
298,Manokwari,78,ID,1586613188,69,-0.87,134.08,27.72,1.5
299,Verkhoyansk,100,RU,1586613230,92,67.54,133.38,-2.79,3.88
300,Tessalit,0,ML,1586612779,6,20.2,1.01,40.22,5.09
301,Inhambane,40,MZ,1586613232,58,-23.86,35.38,28.0,4.1
302,Zeya,10,RU,1586612760,77,53.75,127.27,2.22,2.38
303,Faya,40,SA,1586612759,47,18.39,42.45,24.0,6.7
304,Mahajanga,20,MG,1586612752,44,-15.72,46.32,35.0,2.6
305,Arona,75,ES,1586613236,60,28.1,-16.68,23.0,8.2
306,El Copé,100,PA,1586613237,35,8.62,-80.6,27.22,2.24
307,Hong Kong,40,HK,1586612446,88,22.29,114.16,23.89,2.1
308,Hambantota,9,LK,1586612774,77,6.12,81.12,28.44,6.28
309,Isangel,59,VU,1586612770,67,-19.55,169.27,24.99,4.25
310,Lalibela,68,ET,1586613242,23,12.03,39.03,22.84,3.89
311,Aleppo Governorate,33,SY,1586613243,36,36.25,37.5,18.08,5.78
312,Arrondissement d'Ajaccio,0,FR,1586613244,49,42.0,8.92,23.0,4.6
313,Coquimbo,100,CL,1586612769,67,-29.95,-71.34,16.0,2.1
314,Kabanjahe,40,ID,1586613246,83,3.1,98.49,29.0,2.1
315,Zolotkovo,100,RU,1586613247,65,55.53,41.11,4.74,2.53
316,Krasnoyarskaya,83,RU,1586613248,49,47.65,42.04,9.89,6.04
317,Punta Alta,70,AR,1586612764,42,-38.88,-62.07,21.79,7.67
318,Kahului,1,US,1586612760,78,20.89,-156.47,22.0,5.7
319,Vestmanna,100,FO,1586612768,93,62.16,-7.17,8.0,8.2
320,Vardø,97,NO,1586612676,90,70.37,31.11,-1.17,5.92
321,Nova Zagora,20,BG,1586613254,32,42.48,26.02,20.0,6.2
322,Volgograd,75,RU,1586613255,86,48.72,44.5,5.0,8.0
323,Ayna,20,PE,1586613256,58,-12.65,-73.92,13.0,1.0
324,Kudahuvadhoo,3,MV,1586613257,64,2.67,72.89,29.49,1.03
325,Devonport,20,AU,1586613144,77,-41.17,146.35,11.67,4.47
326,Dongsheng,0,CN,1586612994,30,39.82,109.98,5.28,2.72
327,Puro,1,PH,1586613260,75,12.48,123.38,27.46,2.29
328,Ust'-Ishim,17,RU,1586613261,82,57.69,71.17,5.88,2.21
329,Wanning,35,CN,1586612775,87,18.8,110.4,24.48,0.89
330,Izvestkovyy,19,RU,1586613263,66,48.98,131.55,2.75,1.11
331,Champerico,20,GT,1586613264,83,14.3,-91.92,25.0,0.95
332,Padang,100,ID,1586612749,75,-0.95,100.35,26.96,1.51
333,Tāybād,95,IR,1586613266,43,34.74,60.78,19.8,7.77
334,Uva,100,RU,1586613267,32,56.99,52.19,12.22,2.68
335,Iqaluit,90,CA,1586612747,85,63.75,-68.51,-8.0,1.64
336,Cherskiy,100,RU,1586612762,96,68.75,161.3,-10.32,4.73
337,Puerto Nariño,75,CO,1586612761,100,-3.77,-70.38,25.0,1.18
338,Srednekolymsk,1,RU,1586612762,95,67.45,153.68,-8.61,3.23
339,Santa Cruz de Tenerife,20,ES,1586613273,60,28.47,-16.25,23.0,8.7
340,Uttarkāshi,17,IN,1586613274,24,30.73,78.45,17.66,2.83
341,Jumla,15,NP,1586613275,25,29.27,82.18,9.12,1.2
342,Port Keats,79,AU,1586613276,76,-14.25,129.55,26.71,4.94
343,Kokopo,83,PG,1586613277,79,-4.35,152.26,26.67,2.45
344,Lüderitz,0,NA,1586612774,49,-26.65,15.16,23.0,4.6
345,Balikpapan,100,ID,1586612773,87,-1.27,116.83,24.57,1.96
346,Lasem,90,ID,1586613280,75,-6.69,111.45,27.52,1.63
347,Wattegama,25,LK,1586613281,80,6.8,81.48,25.49,1.49
348,Esperance,62,AU,1586612741,64,-33.87,121.9,21.0,6.2
349,Skibbereen,20,IE,1586612993,63,51.55,-9.27,19.0,2.6
350,Znamenskoye,47,RU,1586613284,92,57.13,73.83,3.87,1.94
351,Alexandria,20,EG,1586613285,56,31.22,29.96,20.0,5.7
352,Maniitsoq,99,GL,1586612742,73,65.42,-52.9,3.22,4.58
353,Talitsy,100,RU,1586613288,65,56.53,42.33,4.39,2.62
354,Gallup,1,US,1586613289,45,35.53,-108.74,-3.0,2.1
355,Imbituba,1,BR,1586613290,60,-28.24,-48.67,21.0,1.5
356,Talaya,100,RU,1586612743,88,61.38,152.75,-10.39,1.05
357,Belyy Yar,0,RU,1586613292,55,53.6,91.39,3.0,2.0
358,Chumikan,0,RU,1586613293,80,54.72,135.31,2.47,3.71
359,Tura,31,IN,1586613181,36,25.52,90.22,24.7,1.08
360,Severnyy,97,RU,1586613295,36,50.68,36.55,9.0,7.0
361,Weiser,1,US,1586613296,50,44.25,-116.97,13.0,3.6
362,Plouzané,0,FR,1586612757,47,48.38,-4.62,24.0,3.1
363,Mnogovershinnyy,34,RU,1586613298,94,53.94,139.92,-2.55,2.94
364,Ola,100,RU,1586613299,91,59.58,151.28,-8.87,4.68
365,Leninskoye,29,RU,1586613301,61,47.94,132.62,3.93,1.94
366,Lufilufi,98,WS,1586613302,71,-13.87,-171.6,29.22,1.96
367,Khowst,97,AF,1586613303,45,33.38,69.88,18.2,1.81
368,Pisco,90,PE,1586612691,30,-13.7,-76.22,22.22,1.5
369,Chui,8,UY,1586612750,57,-33.7,-53.46,21.35,1.83
370,Asău,83,RO,1586613306,25,46.43,26.4,16.11,3.1
371,Mitsamiouli,59,KM,1586613307,74,-11.38,43.28,29.0,6.12
372,Bengkulu,54,ID,1586612751,78,-3.8,102.27,26.87,2.05
373,Abapó,0,BO,1586613309,22,-18.83,-63.47,26.91,2.04
374,Elias Fausto,10,BR,1586613311,53,-23.04,-47.37,25.0,6.2
375,Sabzawār,77,IR,1586613312,41,36.21,57.68,18.6,9.57
376,Auce,88,LV,1586613313,48,56.46,22.9,9.1,5.13
377,Ojinaga,1,MX,1586613314,72,29.57,-104.42,15.0,2.6
378,Sheregesh,0,RU,1586613315,75,52.92,87.99,-0.46,1.01
379,Hurricane,3,US,1586613316,32,37.18,-113.29,7.78,0.28
380,Kaspi,27,GE,1586613317,50,41.93,44.43,12.0,15.9
381,Ahipara,57,NZ,1586613318,76,-35.17,173.17,16.89,4.03
382,Labuhan,80,ID,1586613319,82,-6.88,112.21,26.45,1.21
383,Iroquois Falls,75,CA,1586613321,92,48.77,-80.68,-5.0,1.0
384,Mizdah,28,LY,1586613322,29,31.45,12.98,21.1,4.91
385,Changli,0,CN,1586613323,42,39.7,119.15,10.2,2.86
386,Karasjok,75,NO,1586613324,59,69.47,25.51,1.0,7.7
387,Sudak,77,UA,1586613325,47,44.85,34.97,11.65,1.61
388,Santo Augusto,0,BR,1586613241,68,-27.85,-53.78,18.0,5.7
389,Gubkinskiy,100,RU,1586613327,96,64.43,76.5,2.53,9.64
390,Kānt,0,IN,1586613328,17,27.8,79.8,31.13,2.43
391,Natá,99,PA,1586613329,35,8.33,-80.52,27.22,2.24
392,Manicoré,92,BR,1586612756,62,-5.81,-61.3,31.75,0.86
393,Celestún,1,MX,1586613331,68,20.87,-90.4,26.66,5.72
394,Bandarbeyla,4,SO,1586612747,64,9.49,50.81,28.46,4.87
395,Shimoda,100,JP,1586613201,85,34.67,138.95,11.67,0.98
396,Erenhot,0,CN,1586612764,28,43.65,111.98,7.93,4.13
397,Deputatsky,96,RU,1586612759,92,69.3,139.9,-5.02,5.86
398,Soubre,80,CI,1586613337,69,5.79,-6.61,30.04,0.51
399,Walvis Bay,0,NA,1586612777,34,-22.96,14.51,35.0,6.2
400,Mahabad,87,IR,1586613339,43,36.76,45.72,9.2,5.4
401,Muravlenko,100,RU,1586613340,94,63.79,74.52,2.27,9.19
402,Ranong,20,TH,1586612774,79,9.97,98.63,30.0,1.0
403,Brookings,1,US,1586613275,52,44.31,-96.8,4.44,4.85
404,Mount Isa,31,AU,1586613343,25,-20.73,139.5,24.0,4.1
405,Stromness,75,GB,1586613344,76,58.97,-3.3,14.0,12.9
406,Moroni,73,KM,1586612773,76,-11.7,43.26,28.58,6.54
407,Gaspé,75,CA,1586613000,74,48.83,-64.48,2.78,6.7
408,Menongue,67,AO,1586613348,53,-14.66,17.69,23.22,2.32
409,Havøysund,100,NO,1586613349,80,71.0,24.66,-1.0,6.7
410,Dhidhdhoo,0,MV,1586613350,66,6.88,73.1,30.0,3.36
411,Sungai Penuh,100,ID,1586612758,73,-2.08,101.38,20.62,0.63
412,Anjār,1,IN,1586613352,23,23.13,70.02,34.25,5.03
413,Cabras,0,IT,1586613353,47,39.93,8.53,18.12,3.3
414,Batagay-Alyta,100,RU,1586612766,86,67.8,130.41,-6.74,4.74
415,Paso de los Toros,0,UY,1586613355,87,-32.82,-56.52,16.0,3.1
416,Bathsheba,40,BB,1586612759,55,13.22,-59.52,30.0,6.7
417,Pālampur,41,IN,1586613357,28,32.12,76.53,18.05,2.7
418,Fortuna Foothills,1,US,1586613358,87,32.66,-114.41,11.0,2.6
419,Merke,100,KZ,1586613360,44,42.87,73.18,13.18,2.93
420,Chara,98,RU,1586613361,59,56.91,118.26,1.38,0.84
421,Diego de Almagro,0,CL,1586613362,20,-26.37,-70.05,24.67,2.93
422,Bhatgaon,0,IN,1586613363,11,21.15,81.7,32.06,1.29
423,Lensk,100,RU,1586613364,83,60.73,114.93,1.27,2.98
424,Laas,5,IT,1586613365,36,46.62,10.7,25.0,2.6
425,Khovu-Aksy,2,RU,1586613366,57,51.13,93.6,-0.51,0.37
426,São Félix do Xingu,97,BR,1586613367,82,-6.64,-51.99,25.88,2.55
427,Orcopampa,0,PE,1586613368,9,-15.27,-72.34,12.86,2.0
428,La Ronge,75,CA,1586613369,72,55.1,-105.28,-9.0,5.1
429,Ust-Nera,1,RU,1586613371,86,64.57,143.2,-8.59,1.75
430,Assiut,0,EG,1586613372,28,27.18,31.18,29.0,7.2
431,Hofn,85,IS,1586612778,84,64.25,-15.21,6.02,6.37
432,Mēga,50,ET,1586613374,43,4.05,38.3,21.84,6.87
433,Villa San Giovanni,40,IT,1586613375,72,38.23,15.64,18.33,3.6
434,Campbell River,20,CA,1586613087,70,50.02,-125.24,8.0,5.7
435,Nerchinskiy Zavod,0,RU,1586613377,41,51.31,119.61,6.14,0.99
436,Hohhot,0,CN,1586613378,13,40.81,111.65,7.0,3.0
437,Amapá,84,BR,1586613380,89,1.0,-52.0,26.98,1.72
438,Inuvik,20,CA,1586613195,76,68.35,-133.72,-18.0,0.25
439,Sakaraha,30,MG,1586613382,42,-22.9,44.53,26.97,0.89
440,Tabuk,9,PH,1586613383,83,17.42,121.44,23.42,0.68
441,Camacha,40,PT,1586613384,68,33.08,-16.33,18.0,6.2
442,Buy,100,RU,1586613385,74,58.48,41.53,1.9,3.38
443,Belmonte,40,BR,1586613386,83,-15.86,-38.88,27.0,1.5
444,Punta Cardon,52,VE,1586613387,71,11.66,-70.22,28.72,9.8
445,Albeşti,9,RO,1586613388,26,47.7,27.07,16.67,4.6
446,Iisalmi,19,FI,1586613390,37,63.56,27.19,3.0,6.2
447,Berlevåg,97,NO,1586613391,89,70.86,29.09,-2.43,4.74
448,Sawākin,0,SD,1586613392,62,19.11,37.33,24.99,6.64
449,Mossamedes,7,AO,1586613393,60,-15.2,12.15,26.79,4.3
450,Wismar,100,DE,1586613394,38,53.9,11.47,16.67,2.1
451,Olafsvik,12,IS,1586613395,78,64.89,-23.71,3.71,11.13
452,Fivizzano,0,IT,1586613396,45,44.24,10.13,25.0,5.1
453,‘Ewa Beach,75,US,1586613248,69,21.32,-158.01,25.0,3.6
454,Rocha,0,UY,1586613398,51,-34.48,-54.33,22.13,1.7
455,Portland,75,US,1586613247,75,45.52,-122.68,9.0,0.68
456,Dudinka,75,RU,1586613400,92,69.41,86.18,-5.0,12.0
457,Mehamn,93,NO,1586613401,90,71.04,27.85,-2.99,3.03
458,Kupang,20,ID,1586613403,88,-10.17,123.58,23.0,2.6
459,Beira,58,MZ,1586613404,70,-19.84,34.84,25.21,2.31
460,Lagoa,0,PT,1586613180,69,39.05,-27.98,16.44,4.12
461,Flagstaff,90,US,1586613138,25,35.2,-111.65,8.33,2.36
462,Petropavlivka,91,UA,1586613407,45,48.46,36.44,10.26,6.51
463,Bagotville,0,AU,1586613408,88,-28.98,153.42,22.0,0.5
464,Gatton,62,AU,1586613409,45,-27.55,152.28,22.22,5.1
465,Kilindoni,100,TZ,1586613410,79,-7.91,39.67,28.47,9.73
466,Malé,75,MV,1586613411,70,4.17,73.51,31.0,23.1
467,Panzhihua,1,CN,1586613412,24,26.59,101.71,18.93,1.1
468,Hobyo,0,SO,1586613413,61,5.35,48.53,29.25,6.28
469,Omboué,100,GA,1586613414,85,-1.57,9.26,26.25,3.06
470,Rogaška Slatina,20,SI,1586613416,30,46.24,15.64,23.0,3.1
471,Llanes,100,ES,1586613417,97,43.42,-4.75,15.0,1.17
472,Ayr,20,GB,1586613418,71,55.46,-4.63,15.56,5.7
473,Meadow Lake,1,US,1586613419,26,34.8,-106.54,8.33,1.5
474,San Miguel de Cozumel,5,MX,1586613188,83,20.51,-86.95,28.33,1.5
475,Neiafu,40,TO,1586613421,94,-18.65,-173.98,20.0,4.7
476,Holland,1,US,1586613422,69,42.79,-86.11,7.22,2.1
477,Lima,90,PE,1586613184,83,-12.04,-77.03,22.0,2.1
478,Sheridan,40,US,1586613424,80,44.83,-106.92,3.89,4.1
479,Kashgar,67,CN,1586613425,11,39.45,75.98,21.0,1.0
480,Abu Samrah,51,SY,1586613426,47,35.3,37.18,17.24,7.59
481,Koumac,27,NC,1586613428,73,-20.57,164.28,23.5,2.71
482,Hirtshals,100,DK,1586613429,92,57.59,9.96,6.11,1.34
483,Laguna,20,US,1586613430,87,38.42,-121.42,11.11,2.6
484,Kabompo,94,ZM,1586613431,58,-13.59,24.2,24.09,2.39
485,Beli Potok,93,RS,1586613432,26,44.71,20.52,22.0,6.2
486,Exeter,82,GB,1586613416,63,50.72,-3.53,21.11,1.79
487,Ostrovnoy,97,RU,1586613434,94,68.05,39.51,-3.44,6.49
488,Nkowakowa,20,ZA,1586613435,49,-23.89,30.29,22.0,3.6
489,San Juan,70,AR,1586613240,34,-31.54,-68.54,22.89,2.39
490,Alugan,12,PH,1586613437,73,12.22,125.48,26.54,1.07
491,Ugoofaaru,9,MV,1586613386,68,5.67,73.0,29.88,3.01
492,Nkoteng,100,CM,1586613439,65,4.52,12.03,20.34,2.96
493,Caçu,2,BR,1586613441,50,-18.56,-51.13,27.49,0.1
494,Khani,75,GE,1586613442,76,41.96,42.96,12.0,1.0
495,Lübbenau,56,DE,1586613443,28,51.87,13.97,17.22,1.0
496,Makakilo City,90,US,1586613444,94,21.35,-158.09,25.0,2.1
497,Dawei,44,MM,1586613445,68,14.08,98.2,26.56,0.31
498,Sola,22,VU,1586613446,75,-13.88,167.55,26.87,5.82
499,Nikol'sk,100,RU,1586613447,82,53.72,46.07,4.26,1.39
500,Teberda,74,RU,1586613448,42,43.45,41.74,3.62,2.5
501,Jáchymov,74,CZ,1586613449,26,50.36,12.93,17.22,1.5
502,Wilmington,1,US,1586613428,43,34.23,-77.94,13.89,2.1
503,Petropavlovsk-Kamchatskiy,75,RU,1586613451,95,53.05,158.65,0.0,1.0
504,Saurimo,86,AO,1586613452,62,-9.66,20.39,24.1,2.46
505,Kolhāpur,50,IN,1586613454,46,16.7,74.22,27.2,3.5
506,Hasaki,75,JP,1586613455,66,35.73,140.83,10.0,2.1
507,Victor Harbor,20,AU,1586613456,66,-35.57,138.62,12.78,2.6
508,Sorsk,0,RU,1586613457,67,54.0,90.25,-0.52,1.0
509,Tamiahua,68,MX,1586613458,88,21.27,-97.45,26.78,3.24
510,Petatlán,40,MX,1586613459,83,17.52,-101.27,23.0,1.0
511,Plateros,75,MX,1586613460,15,23.22,-102.85,10.0,3.1
512,Ulaanbaatar,0,MN,1586613461,14,47.91,106.88,7.0,7.0
513,Half Moon Bay,90,US,1586613190,93,37.46,-122.43,12.22,2.1
514,Paamiut,88,GL,1586613177,88,61.99,-49.67,1.64,1.58
515,Hamilton,90,US,1586613325,75,39.18,-84.53,8.33,2.91
516,Andenes,100,NO,1586613465,80,69.31,16.12,0.0,8.2
517,Hirara,92,JP,1586613466,86,24.8,125.28,21.91,0.94
518,Whitehorse,5,CA,1586613468,60,60.72,-135.05,-13.0,0.67
519,São João da Barra,75,BR,1586613282,78,-21.64,-41.05,25.0,2.1
520,Mt. Pleasant,1,US,1586613470,58,32.79,-79.86,18.33,4.2
521,Poronaysk,5,RU,1586613471,93,49.22,143.12,-3.84,1.77
522,Xinmin,0,CN,1586613472,22,41.99,122.83,12.0,4.0
523,Maamba,32,ZM,1586613473,47,-17.37,27.15,25.27,2.66
524,Concarneau,0,FR,1586613474,53,47.88,-3.92,23.0,4.6
525,Davila,99,PH,1586613475,78,18.47,120.58,26.08,0.46
526,Ürümqi,33,CN,1586613476,33,43.8,87.6,14.0,2.0
527,Sambava,0,MG,1586613477,77,-14.27,50.17,26.06,4.65
528,Bilma,99,NE,1586613478,8,18.69,12.92,36.18,5.59
529,Huilong,75,CN,1586613480,84,31.81,121.66,10.0,5.74
530,Mahanoro,15,MG,1586613481,81,-19.9,48.8,24.96,2.75
531,Coruripe,5,BR,1586613482,57,-10.13,-36.18,31.1,4.36
532,Makkah al Mukarramah,33,SA,1586613458,20,21.43,39.83,26.76,8.25
533,Mabaruma,100,GY,1586613484,60,8.2,-59.78,28.68,3.2
534,Saint-Leu,20,RE,1586613485,69,-21.15,55.28,27.0,11.3
535,Torit,99,SS,1586613487,27,4.41,32.57,34.32,1.65
536,Sarai,100,RU,1586613488,61,53.75,41.02,5.59,6.82
537,Lompoc,90,US,1586613447,87,34.64,-120.46,12.22,2.1
538,Vraca,40,BA,1586613490,29,43.84,18.4,19.0,1.5
539,Moerai,100,PF,1586613491,85,-22.43,-151.33,27.41,2.56
540,Takoradze,100,GH,1586613401,76,4.88,-1.76,29.07,3.26
541,Brigantine,1,US,1586613493,39,39.41,-74.36,9.44,8.2
